{
    "googleMapsKey": "AIzaSyBnyib0uElbs0LNFobHjWhQMyTq-hiStEg",
    "tourType": "LINEAIR",
    "poiList":[
   	 	{
            "name": "Meneer van Mourik",
            "description": "",
            "coordinate": {
                "latitude": 52.355497,
                "longitude": 4.893156
            },
            "radius": 5,
            "onEnter":"bennopremsela.html",
            "onExit":"totziens.html"
        }, 
        {
            "name": "BBROOD",
            "description": "",
            "coordinate": {
                "latitude": 52.355100,
                "longitude": 4.893296
            },
            "radius": 5,
            "onEnter":"bennopremsela.html",
            "onExit":"totziens.html"
        },
        {
            "name": "Alain Bernard",
            "description": "Voor velen de favoriete slager in de pijp. Ze hebben allerlei heerlijke worsten in hun assortiment met roots uit Frankrijk.",
            "coordinate": {
                "latitude": 52.355453,
                "longitude": 4.892651
            },
            "radius": 5,
            "onEnter":"theothijssen.html",
            "onExit":"naarbennopremsela.html"
        },
        {
            "name": "Tjin's Toko",
            "description": "",
            "coordinate": {
                "latitude": 52.354974,
                "longitude": 4.893380
            },
            "radius": 5,
            "onEnter":"bennopremsela.html",
            "onExit":"totziens.html"
        },
        {
            "name": "Estafette",
            "description": "",
            "coordinate": {
                "latitude": 52.352499,
                "longitude": 4.888202
            },
            "radius": 5,
            "onEnter":"bennopremsela.html",
            "onExit":"totziens.html"
        }
    ]
}